{
  "id": "sendero-arrayanes-audio-01",
  "name": "Sendero de los Arrayanes",
  "points": [
    {
      "id": "p1",
      "name": "El sendero de los Arrayanes",
      "lat": -41.052365,
      "lng": -71.540938,
      "alt": 900,
      "radius": 20,
      "audio": "audio/tours/sendero-arrayanes-audio-01/es/001.mp3"
    },
    {
      "id": "p2",
      "name": "Primer bifurcación",
      "lat": -41.05252,
      "lng": -71.541555,
      "alt": 900,
      "radius": 20,
      "audio": "audio/tours/sendero-arrayanes-audio-01/es/002.mp3"
    },
    {
      "id": "p3",
      "name": "El Churrin y el Chucao",
      "lat": -41.052827,
      "lng": -71.540907,
      "alt": 900,
      "radius": 20,
      "audio": "audio/tours/sendero-arrayanes-audio-01/es/003.mp3"
    },
    {
      "id": "p4",
      "name": "El Chimango",
      "lat": -41.05348,
      "lng": -71.54062,
      "alt": 900,
      "radius": 20,
      "audio": "audio/tours/sendero-arrayanes-audio-01/es/004.mp3"
    },
    {
      "id": "p5",
      "name": "El Picaflor Rubi",
      "lat": -41.05402,
      "lng": -71.54084,
      "alt": 900,
      "radius": 20,
      "audio": "audio/tours/sendero-arrayanes-audio-01/es/005.mp3"
    },
    {
      "id": "p6",
      "name": "La caña colihue",
      "lat": -41.053997,
      "lng": -71.541878,
      "alt": 900,
      "radius": 20,
      "audio": "audio/tours/sendero-arrayanes-audio-01/es/006.mp3"
    },
    {
      "id": "p7",
      "name": "El hueco en el Coihue",
      "lat": -41.053744,
      "lng": -71.542764,
      "alt": 900,
      "radius": 20,
      "audio": "audio/tours/sendero-arrayanes-audio-01/es/007.mp3"
    },
    {
      "id": "p8",
      "name": "La Ratona y el sonido de contacto",
      "lat": -41.05355,
      "lng": -71.54369,
      "alt": 900,
      "radius": 20,
      "audio": "audio/tours/sendero-arrayanes-audio-01/es/008.mp3"
    },
    {
      "id": "p9",
      "name": "El Coihue caido",
      "lat": -41.05389,
      "lng": -71.54494,
      "alt": 900,
      "radius": 20,
      "audio": "audio/tours/sendero-arrayanes-audio-01/es/009.mp3"
    },
    {
      "id": "p10",
      "name": "Comienzo pasarela Bosque de Arrayanes",
      "lat": -41.054592,
      "lng": -71.544547,
      "alt": 900,
      "radius": 20,
      "audio": "audio/tours/sendero-arrayanes-audio-01/es/010.mp3"
    },
    {
      "id": "p11",
      "name": "Leyenda del Coihue y el Arrayán",
      "lat": -41.05545,
      "lng": -71.54475,
      "alt": 900,
      "radius": 20,
      "audio": "audio/tours/sendero-arrayanes-audio-01/es/011.mp3"
    },
    {
      "id": "p12",
      "name": "La Ratona y el sonido de canto",
      "lat": -41.05632,
      "lng": -71.54527,
      "alt": 900,
      "radius": 20,
      "audio": "audio/tours/sendero-arrayanes-audio-01/es/012.mp3"
    },
    {
      "id": "p13",
      "name": "El Quintral",
      "lat": -41.05675,
      "lng": -71.546044,
      "alt": 900,
      "radius": 20,
      "audio": "audio/tours/sendero-arrayanes-audio-01/es/013.mp3"
    },
    {
      "id": "p14",
      "name": "El Monito del Monte",
      "lat": -41.056673,
      "lng": -71.546519,
      "alt": 900,
      "radius": 20,
      "audio": "audio/tours/sendero-arrayanes-audio-01/es/014.mp3"
    },
    {
      "id": "p15",
      "name": "Leyenda de las aves pequeñas",
      "lat": -41.05691,
      "lng": -71.5474,
      "alt": 900,
      "radius": 20,
      "audio": "audio/tours/sendero-arrayanes-audio-01/es/015.mp3"
    },
    {
      "id": "p16",
      "name": "El Huet Huet",
      "lat": -41.05737,
      "lng": -71.54795,
      "alt": 900,
      "radius": 20,
      "audio": "audio/tours/sendero-arrayanes-audio-01/es/016.mp3"
    },
    {
      "id": "p17",
      "name": "Próximos a la bifurcación",
      "lat": -41.05817,
      "lng": -71.54994,
      "alt": 900,
      "radius": 20,
      "audio": "audio/tours/sendero-arrayanes-audio-01/es/017.mp3"
    },
    {
      "id": "p18",
      "name": "Cierre y llegada a la playa del lago",
      "lat": -41.058517,
      "lng": -71.548955,
      "alt": 900,
      "radius": 20,
      "audio": "audio/tours/sendero-arrayanes-audio-01/es/018.mp3"
    }
  ],
  "offline": {
    "totalBytes": 13125220,
    "files": [
      {
        "path": "audio/tours/sendero-arrayanes-audio-01/es/001.mp3",
        "bytes": 395306
      },
      {
        "path": "audio/tours/sendero-arrayanes-audio-01/es/002.mp3",
        "bytes": 432603
      },
      {
        "path": "audio/tours/sendero-arrayanes-audio-01/es/003.mp3",
        "bytes": 540303
      },
      {
        "path": "audio/tours/sendero-arrayanes-audio-01/es/004.mp3",
        "bytes": 446689
      },
      {
        "path": "audio/tours/sendero-arrayanes-audio-01/es/005.mp3",
        "bytes": 323664
      },
      {
        "path": "audio/tours/sendero-arrayanes-audio-01/es/006.mp3",
        "bytes": 1191155
      },
      {
        "path": "audio/tours/sendero-arrayanes-audio-01/es/007.mp3",
        "bytes": 1214296
      },
      {
        "path": "audio/tours/sendero-arrayanes-audio-01/es/008.mp3",
        "bytes": 577655
      },
      {
        "path": "audio/tours/sendero-arrayanes-audio-01/es/009.mp3",
        "bytes": 1094992
      },
      {
        "path": "audio/tours/sendero-arrayanes-audio-01/es/010.mp3",
        "bytes": 421451
      },
      {
        "path": "audio/tours/sendero-arrayanes-audio-01/es/011.mp3",
        "bytes": 1649780
      },
      {
        "path": "audio/tours/sendero-arrayanes-audio-01/es/012.mp3",
        "bytes": 637890
      },
      {
        "path": "audio/tours/sendero-arrayanes-audio-01/es/013.mp3",
        "bytes": 604041
      },
      {
        "path": "audio/tours/sendero-arrayanes-audio-01/es/014.mp3",
        "bytes": 832461
      },
      {
        "path": "audio/tours/sendero-arrayanes-audio-01/es/015.mp3",
        "bytes": 548249
      },
      {
        "path": "audio/tours/sendero-arrayanes-audio-01/es/016.mp3",
        "bytes": 744882
      },
      {
        "path": "audio/tours/sendero-arrayanes-audio-01/es/017.mp3",
        "bytes": 699179
      },
      {
        "path": "audio/tours/sendero-arrayanes-audio-01/es/018.mp3",
        "bytes": 770624
      }
    ]
  }
}
